{"layout":"password","sections":{"main":{"type":"password","blocks":{"logo":{"type":"logo","name":"Logo","settings":{"inverse":false,"font":"heading","unit":"pixel","percent_width":100,"pixel_height":48,"custom_mobile_size":false,"unit_mobile":"percent","percent_width_mobile":80,"pixel_height_mobile":120,"padding-block-start":50,"padding-block-end":32,"padding-inline-start":0,"padding-inline-end":0},"blocks":{}},"text":{"type":"text","name":"Text","settings":{"text":"<h1>Opening soon<\/h1>","width":"fit-content","max_width":"normal","alignment":"left","type_preset":"h2","font":"var(--font-body--family)","font_size":"1rem","line_height":"normal","letter_spacing":"normal","case":"none","wrap":"pretty","color":"var(--color-foreground-heading)","background":false,"background_color":"#00000026","corner_radius":0,"padding-block-start":0,"padding-block-end":0,"padding-inline-start":0,"padding-inline-end":0},"blocks":{}},"text-2":{"type":"text","name":"Text","settings":{"text":"<p>Your favorite store will be available online soon. In the meantime, you can shop offline at a nearby store.<\/p>","width":"fit-content","max_width":"normal","alignment":"left","type_preset":"rte","font":"var(--font-body--family)","font_size":"1rem","line_height":"normal","letter_spacing":"normal","case":"none","wrap":"pretty","color":"var(--color-foreground)","background":false,"background_color":"#00000026","corner_radius":0,"padding-block-start":0,"padding-block-end":32,"padding-inline-start":0,"padding-inline-end":0},"blocks":{}},"email-signup":{"type":"email-signup","name":"Email Signup","disabled":true,"settings":{"width":"custom","custom_width":50,"inherit_color_scheme":true,"heading":"","heading_preset":"h3","color_scheme":"","border_style":"all","border_width":1,"border_radius":2,"input_type_preset":"paragraph","style_class":"button","display_type":"text","label":"Sign up","integrated_button":false,"button_type_preset":"paragraph","padding-block-start":0,"padding-block-end":0,"padding-inline-start":0,"padding-inline-end":0},"blocks":{}}},"block_order":["logo","text","text-2","email-signup"],"name":"Password","settings":{"content_direction":"column","vertical_on_mobile":true,"horizontal_alignment":"center","vertical_alignment":"center","align_baseline":false,"horizontal_alignment_flex_direction_column":"center","vertical_alignment_flex_direction_column":"center","gap":12,"section_width":"page-width","color_scheme":"","background_media":"none","video_position":"cover","background_image_position":"cover","border":"none","border_width":1,"border_opacity":100,"border_radius":0,"padding-block-start":0,"padding-block-end":0}},"store_locator_eVqmCR":{"type":"store-locator","blocks":{"store_gwCbfm":{"type":"store","settings":{"store_name":"","address":"14-4-27 BESIDE ADITHYA DEGREE COLLEGE,MAIN ROAD PALAKOLLU, WEST GODAVARI DISTRICT, West Godavari, Andhra Pradesh","city":"PALAKOL","state":"ANDHRA PRADESH","postal_code":"534260","phone":"","latitude":"16.517979175174954","longitude":"81.72627532480432","custom_map_link":""}},"store_WJVWAB":{"type":"store","settings":{"store_name":"","address":"7-254, BANGINAPALLI THOTA, NUZIVIDU, Krishna, Andhra Pradesh","city":"NUZIVIDU","state":"ANDHRA PRADESH","postal_code":"521201","phone":"","latitude":"16.781534803475637","longitude":"80.84694095361937","custom_map_link":""}},"store_DF4xrU":{"type":"store","settings":{"store_name":"","address":"# 13\/19MAIN ROAD NUZVID KRISHNA DISTRICT ANDHARA PREDESH \nPIN","city":"NUZIVIDU","state":"ANDHRA PRADESH","postal_code":"521201","phone":"","latitude":"16.791601020889697","longitude":"80.84706969964185","custom_map_link":""}},"store_nMV6KL":{"type":"store","settings":{"store_name":"","address":"174,  JAWAHARLAL NEHRU STREET, PUDUCHERRY, Puducherry, Puducherry","city":"PUDUCHERRY","state":"","postal_code":"605001","phone":"","latitude":"11.93650011731808","longitude":"79.82851015847142","custom_map_link":""}},"store_Yagman":{"type":"store","settings":{"store_name":"","address":"9-9-1\/1, ARUNDELPET, NARASARAOPET, Guntur, Andhra Pradesh","city":"NARSARAO PETA","state":"ANDHRA PRADESH","postal_code":"522601","phone":"","latitude":"16.234340794813612","longitude":"80.0454960517888","custom_map_link":""}},"store_EMrAxP":{"type":"store","settings":{"store_name":"","address":"15-10, GROUND FLOOR, MAIN ROAD, NADIM TIRUVURU, TIRUVURU, Krishna, Andhra Pradesh","city":"TIRUVURU","state":"ANDHRA PRADESH","postal_code":"521235","phone":"","latitude":"","longitude":"","custom_map_link":""}},"store_Y6xdcy":{"type":"store","settings":{"store_name":"","address":"6-1174\/8, OPP NARAYANA E M SCHOOL, KODAD ROAD, UPSTAIRS, Jaggaiahpet, NTR, Andhra Pradesh","city":"JAGGAIAHPET","state":"ANDHRA PRADESH","postal_code":"521175","phone":"","latitude":"16.897171106031678","longitude":"80.09829080946946","custom_map_link":""}},"store_7Cc7tK":{"type":"store","settings":{"store_name":"","address":"Opposite coastal local area bank\nMain road \nAkividu , WG DIST","city":"AKIVIDU","state":"ANDHRA PRADESH","postal_code":"534235","phone":"","latitude":"16.582380782996378","longitude":"81.37809803012559","custom_map_link":""}},"store_YAjXke":{"type":"store","settings":{"store_name":"","address":"6-286,Beside Hyundai Showroom,Antarvedi Road,Malkipuram, Andhra Pradesh","city":"MALKIPURAM","state":"ANDHRA PRADESH","postal_code":"533253","phone":"8341325433","latitude":"16.409764585970972","longitude":"81.80207421130831","custom_map_link":""}},"store_3bBpcY":{"type":"store","settings":{"store_name":"","address":"CINEMA ROAD","city":"ADILABAD","state":"TELANGANA","postal_code":"504001","phone":"","latitude":"","longitude":"","custom_map_link":""}},"store_qjiRGb":{"type":"store","settings":{"store_name":"","address":"Plot No.242, PADMAVATHI NAGAR MAIN ROAD, NANDYAL, Kurnool, Andhra Pradesh","city":"NANDYAL","state":"ANDHRA PRADESH","postal_code":"518501","phone":"","latitude":"15.48243482213893","longitude":"78.48205198245937","custom_map_link":""}},"store_C9Ygdg":{"type":"store","settings":{"store_name":"","address":"ESHWAR NAGAR,OPP ARUNODAYA SUPERMARKET.KURNOOL","city":"KURNOOL","state":"ANDHRA PRADESH","postal_code":"518001","phone":"","latitude":"15.832180059467278","longitude":"78.04059562294759","custom_map_link":""}},"store_nXiFtn":{"type":"store","settings":{"store_name":"","address":"6-1, AMBEDKAR CENTER, MAIN ROAD, Madhira, Khammam, Telangana","city":"MADHIRA","state":"TELANGANA","postal_code":"507203","phone":"","latitude":"16.917516810702743","longitude":"80.3644984571561","custom_map_link":""}},"store_F4gLLy":{"type":"store","settings":{"store_name":"","address":"WYRA ROAD\nKHAMMAM","city":"KHAMMAM","state":"TELANGANA","postal_code":"507002","phone":"","latitude":"","longitude":"","custom_map_link":""}},"store_hWKKVK":{"type":"store","settings":{"store_name":"","address":"1-74\/DH\/186 & 201,\nGACHIBOWLI","city":"HYDERABAD","state":"TELANGANA","postal_code":"500032","phone":"","latitude":"17.43452714883268","longitude":"78.36919771858555","custom_map_link":""}},"store_wTnUDq":{"type":"store","settings":{"store_name":"","address":"PlotNo:10& 46 , MIG-2, 9th Phase, KPHB Colony,Kukatpally","city":"HYDERABAD","state":"TELANGANA","postal_code":"500072","phone":"","latitude":"17.487551213117534","longitude":"78.38353196714944","custom_map_link":""}},"store_FEk69t":{"type":"store","settings":{"store_name":"","address":"H.NO:1-1-306\/1 PLOT NO:1&17 SRIRAM NAGAR KAPRA HYDRABAD","city":"HYDERABAD","state":"TELANGANA","postal_code":"500062","phone":"","latitude":"17.484691071618297","longitude":"78.5655900474273","custom_map_link":""}},"store_km79fd":{"type":"store","settings":{"store_name":"","address":"\"Aakruti \n3rd floor (amb)\nUnit no#80-84\nSarath city capital mall\nGST NO 36AAACG7471N1Z5\nHyderabad","city":"HYDERABAD","state":"TELANGANA","postal_code":"500084","phone":"","latitude":"17.46037625616053","longitude":"78.36525388984693","custom_map_link":""}},"store_BdQkQc":{"type":"store","settings":{"store_name":"","address":"7-12, Madinaguda, Chanda Nagar, Krishnadevaraya Colony, Sy.No.151,152,177, Miyapur, Hyderabad, Medchal Malkajgiri, Telangana","city":"HYDERABAD","state":"TELANGANA","postal_code":"500049","phone":"","latitude":"17.4955531183038","longitude":"78.34261702482","custom_map_link":""}},"store_4VJQjb":{"type":"store","settings":{"store_name":"","address":"GROUND FLOOR, 29-1055\/1, Macherla Vinukonda Road, PALNAD ROAD, Vinukonda, Vinukonda, Palnadu, Andhra Pradesh","city":"VINUKONDA","state":"ANDHRA PRADESH","postal_code":"522647","phone":"","latitude":"16.05708408726577","longitude":"79.73936465178612","custom_map_link":""}},"store_UrFR9D":{"type":"store","settings":{"store_name":"","address":"10-14-38\/1, NIZAMPATNAM ROAD, OPP R & B GUEST HOUSE, Repalle, Bapatla, Andhra Pradesh","city":"REPALLE","state":"ANDHRA PRADESH","postal_code":"522265","phone":"","latitude":"16.01848812139219","longitude":"80.82788823829118","custom_map_link":""}},"store_DwaC9G":{"type":"store","settings":{"store_name":"","address":"D.NO: 5-87-133\/3\nopp: Hollywood Bollywood Theater,\nLaxmipuram Main Road","city":"GUNTUR","state":"ANDHRA PRADESH","postal_code":"522007","phone":"","latitude":"16.30879639565328","longitude":"80.43457820125687","custom_map_link":""}},"store_GKLLhw":{"type":"store","settings":{"store_name":"","address":"RASHTRAPATHI ROAD,3RD STREET\nOPP COURT ROAD\nTANUKU","city":"TANUKU","state":"ANDHRA PRADESH","postal_code":"534211","phone":"","latitude":"16.7531001471379","longitude":"81.68742051131365","custom_map_link":""}},"store_AWwjGh":{"type":"store","settings":{"store_name":"","address":"1-4-10\/1, chakala peta, Pithapuram, Kakinada, Andhra Pradesh","city":"PITHAPURAM","state":"ANDHRA PRADESH","postal_code":"533450","phone":"","latitude":"17.123248427851177","longitude":"82.25503767621592","custom_map_link":""}},"store_4ymEYy":{"type":"store","settings":{"store_name":"","address":"MAIN ROAD","city":"KAKINADA","state":"ANDHRA PRADESH","postal_code":"533001","phone":"","latitude":"16.958257493996594","longitude":"82.23541759597605","custom_map_link":""}},"store_PaWJhf":{"type":"store","settings":{"store_name":"","address":"8-154\/B,8-154\/A, MSR ROAD, BESIDE SRINIVASA THEATER, Kanigiri, Prakasam, Andhra Pradesh","city":"KANIGIRI","state":"ANDHRA PRADESH","postal_code":"523230","phone":"","latitude":"15.404828780958233","longitude":"79.5075863741617","custom_map_link":""}},"store_6AiBrU":{"type":"store","settings":{"store_name":"","address":"9-20-100\/1","city":"RAJAHMUNDRI","state":"ANDHRA PRADESH","postal_code":"533102","phone":"","latitude":"","longitude":"","custom_map_link":""}},"store_kEP6K9":{"type":"store","settings":{"store_name":"","address":"CHIRALA FASHIONS,\nC MALL,STATION ROAD","city":"CHIRALA","state":"ANDHRA PRADESH","postal_code":"523155","phone":"","latitude":"15.829334560632729","longitude":"80.35572018246437","custom_map_link":""}},"store_LXrBEq":{"type":"store","settings":{"store_name":"","address":"MAIN ROAD","city":"RAJAHMUNDRI","state":"ANDHRA PRADESH","postal_code":"533102","phone":"","latitude":"16.997623885461223","longitude":"81.7733373689879","custom_map_link":""}},"store_d8wBEE":{"type":"store","settings":{"store_name":"","address":"HOUSE NO:1-6-141\/33 SRI RAM NAGAR NEAR MANNA CHURCH NH 65, SURYAPET, TELANGANA PIN CODE","city":"SURYAPET","state":"TELANGANA","postal_code":"508123","phone":"","latitude":"17.14862790980668","longitude":"79.62684641131982","custom_map_link":""}},"store_bTVNwp":{"type":"store","settings":{"store_name":"","address":"HOUSE NO:1-6-141\/33 SRI RAM NAGAR NEAR MANNA CHURCH NH 65, SURYAPET, TELANGANA PIN CODE","city":"SURYAPET","state":"TELANGANA","postal_code":"508123","phone":"","latitude":"17.14862790980668","longitude":"79.62684641131982","custom_map_link":""}},"store_C4trKQ":{"type":"store","settings":{"store_name":"","address":"5-4-191\/1, ANITHA COMPLEX, OLD COLLECTORATE ROAD, NALGONDA, Nalgonda, Telangana","city":"NALGONDA","state":"TELANGANA","postal_code":"508001","phone":"","latitude":"17.05363039760568","longitude":"79.26700002296629","custom_map_link":""}},"store_cdVf9h":{"type":"store","settings":{"store_name":"","address":"\"JC PLAZA ,JEMMI CHETTU STREET,\nMOGHALRAJPURAM VJY-10","city":"VIJAYAWADA","state":"ANDHRA PRADESH","postal_code":"520010","phone":"0866-2499996","latitude":"16.503105705319008","longitude":"80.64315289412248","custom_map_link":""}},"store_Nyaztr":{"type":"store","settings":{"store_name":"","address":"D.NO-8-127\/1,8-127\/3,  KATURU ROAD Krishna, Andhra Pradesh","city":"VUYYURU","state":"ANDHRA PRADESH","postal_code":"521165","phone":"","latitude":"16.366320425336777","longitude":"80.84290645363717","custom_map_link":""}},"store_8aPnDz":{"type":"store","settings":{"store_name":"","address":"76-14-96A\/1, , Swathi Road, Bhavanipuram,Vijayawada, Krishna, Andhra Pradesh","city":"VIJAYAWADA","state":"ANDHRA PRADESH","postal_code":"520012","phone":"","latitude":"16.53595376079783","longitude":"80.59859272295817","custom_map_link":""}},"store_Pa9eqK":{"type":"store","settings":{"store_name":"","address":"KHATA  62\/2972,PLOT NO-280\/2933\/4846, KHATA NO-62\/4227, NH 326,Commercial Tax Office, MOUZA-RAYAGADA, Odisha","city":"RAYAGADA","state":"ORISSA","postal_code":"765001","phone":"","latitude":"19.180791835378056","longitude":"83.41418031513126","custom_map_link":""}},"store_YtNf6H":{"type":"store","settings":{"store_name":"","address":"\"BASHYAM SCHOOL COMPLEX\nOPPO GANESH CANTEEN\nJP ROAD\nBHIMAVARAM","city":"BHIMAVARAM","state":"ANDHRA PRADESH","postal_code":"534202","phone":"","latitude":"16.544158461509813","longitude":"81.52499450946398","custom_map_link":""}},"store_iWcWn6":{"type":"store","settings":{"store_name":"","address":"Sheet No.37 Sy.No.3119, GROUND FIRST SECOND THIRD, BHANAPETH, Chandrapur, Chandrapur, Maharashtra","city":"CHANDRAPUR","state":"MAHARASHTRA","postal_code":"442402","phone":"","latitude":"","longitude":"","custom_map_link":""}},"store_pcByzm":{"type":"store","settings":{"store_name":"","address":"1490, Shrunga, Kempegowda Double Road BEML Layout, Rajarajeshwari Nagar, Bengaluru, Bengaluru Urban, Karnataka","city":"BANGALORE","state":"KARNATAKA","postal_code":"560098","phone":"","latitude":"12.922171431364262","longitude":"77.51374942651316","custom_map_link":""}},"store_CRP3wz":{"type":"store","settings":{"store_name":"","address":"Door No.375B, ward no.22, Infantry  Main Road, Bellary -  Karnataka","city":"BELLARY","state":"KARNATAKA","postal_code":"583104","phone":"","latitude":"15.151702644085718","longitude":"76.90250448245476","custom_map_link":""}},"store_b3qpBc":{"type":"store","settings":{"store_name":"","address":"13\/654-3, PUTLUR ROAD, Lakshmi Vinayaka Medicals, Kalavagadda Colony, Tadpatri, Ananthapuramu, Andhra Pradesh,","city":"TADIPATRI","state":"ANDHRA PRADESH","postal_code":"515411","phone":"","latitude":"14.906773465189241","longitude":"78.00771460294094","custom_map_link":""}},"store_gmjGAr":{"type":"store","settings":{"store_name":"","address":"18-1-504, MOSQROAD VV MAHAL ROAD, TIRUPATI, Chittoor, Andhra Pradesh","city":"TIRUPATHI","state":"ANDHRA PRADESH","postal_code":"517501","phone":"","latitude":"13.637393876697558","longitude":"79.41930679592961","custom_map_link":""}},"store_CYR9RH":{"type":"store","settings":{"store_name":"","address":"13 640 Y V STREET KADAPA YSR DISTRIC, KADAPA(CUDDAPAH) ANDHRA PRADESH","city":"CUDDAPAH","state":"ANDHRA PRADESH","postal_code":"516001","phone":"","latitude":"","longitude":"","custom_map_link":""}},"store_iFmGxe":{"type":"store","settings":{"store_name":"","address":"18\/110, Tadipatri Road, Jammalamadugu, YSR, Andhra Pradesh","city":"JAMMALAMADUGU","state":"ANDHRA PRADESH","postal_code":"516434","phone":"","latitude":"14.846915968188458","longitude":"78.38300951128586","custom_map_link":""}},"store_iJf9Jg":{"type":"store","settings":{"store_name":"","address":"7\/1546,KORRAPADU ROAD","city":"PRODDATUR","state":"ANDHRA PRADESH","postal_code":"516360","phone":"","latitude":"14.754727861412562","longitude":"78.55613003827334","custom_map_link":""}},"store_qcfN86":{"type":"store","settings":{"store_name":"","address":"SY.NO.960, MADRAS ROAD, Rajampet, Annamayya, Andhra Pradesh","city":"RAJAMPETA","state":"ANDHRA PRADESH","postal_code":"516126","phone":"","latitude":"14.19292395226516","longitude":"79.16327917402883","custom_map_link":""}},"store_6FN8nj":{"type":"store","settings":{"store_name":"","address":"22-2-1371\/1,Kurisettivari Street","city":"BHIMAVARAM","state":"ANDHRA PRADESH","postal_code":"534201","phone":"","latitude":"16.543147851979025","longitude":"81.51256890128559","custom_map_link":""}},"store_QFJAen":{"type":"store","settings":{"store_name":"","address":"Main Bazaar, , Opposite Birla Bhavan centre, beside N S Market, Eluru, West Godavari, Andhra Pradesh","city":"ELURU","state":"ANDHRA PRADESH","postal_code":"534001","phone":"","latitude":"16.70910124234048","longitude":"81.11026609781855","custom_map_link":""}},"store_T9CJWY":{"type":"store","settings":{"store_name":"","address":"Block No 2 506, PRAKASH CHOPRA BUILDING, Ward No 3 2nd Main Road Jawahar Road, Near Gadiyar Kamba, Koppal, Koppal, Karnataka","city":"KOPPAL","state":"KARNATAKA","postal_code":"583231","phone":"","latitude":"","longitude":"","custom_map_link":""}},"store_XeKxMG":{"type":"store","settings":{"store_name":"","address":"RS NO.101\/1, OPP BUS STAND, Mylavaram, NTR, Andhra Pradesh","city":"MYLAVARAM","state":"ANDHRA PRADESH","postal_code":"521230","phone":"","latitude":"16.76208900785147","longitude":"80.64179204733514","custom_map_link":""}}},"block_order":["store_gwCbfm","store_WJVWAB","store_DF4xrU","store_nMV6KL","store_Yagman","store_EMrAxP","store_Y6xdcy","store_7Cc7tK","store_YAjXke","store_3bBpcY","store_qjiRGb","store_C9Ygdg","store_nXiFtn","store_F4gLLy","store_hWKKVK","store_wTnUDq","store_FEk69t","store_km79fd","store_BdQkQc","store_4VJQjb","store_UrFR9D","store_DwaC9G","store_GKLLhw","store_AWwjGh","store_4ymEYy","store_PaWJhf","store_6AiBrU","store_kEP6K9","store_LXrBEq","store_d8wBEE","store_bTVNwp","store_C4trKQ","store_cdVf9h","store_Nyaztr","store_8aPnDz","store_Pa9eqK","store_YtNf6H","store_iWcWn6","store_pcByzm","store_CRP3wz","store_b3qpBc","store_gmjGAr","store_CYR9RH","store_iFmGxe","store_iJf9Jg","store_qcfN86","store_6FN8nj","store_QFJAen","store_T9CJWY","store_XeKxMG"],"name":"Store locator","settings":{"heading":"","intro_text":"","enable_search":true,"search_placeholder":"Search by city or pin...","directions_label":"Get directions","button_color":"#c50984","google_maps_api_key":"AIzaSyBuVidu2BtpDB7UABjS64w2rAaBoNdizD0","google_routes_api_key":"AIzaSyBuVidu2BtpDB7UABjS64w2rAaBoNdizD0","default_latitude":"","default_longitude":""}}},"order":["main","store_locator_eVqmCR"]}